{
  "type": "FeatureCollection",
  "features": [
    {
      "type": "Feature",
      "properties": {
        "Name": "Albina Press",
        "Address": "4637 N Albina Ave  Portland, OR 97217",
        "Notes": "usually busy, outlets on side wall only"
      },
      "geometry": {
        "type": "Point",
        "coordinates": [
          -122.67516911029816,
          45.55673233031101
        ]
      }
    },
    {
      "type": "Feature",
      "properties": {
        "Name": "Arbor Lodge",
        "Address": "1507 N Rosa Parks Way  Portland, OR 97217",
        "Notes": ""
      },
      "geometry": {
        "type": "Point",
        "coordinates": [
          -122.68242716789246,
          45.56997505986905
        ]
      }
    },
    {
      "type": "Feature",
      "properties": {
        "Name": "Three Friends Coffeehouse",
        "Address": "201 SE 12th Ave, Portland, OR 97214",
        "Notes": ""
      },
      "geometry": {
        "type": "Point",
        "coordinates": [
          -122.65496134757996,
          45.5212590460849
        ]
      }
    },
    {
      "type": "Feature",
      "properties": {
        "Name": "Lucky Labrador Brew Pub",
        "Address": "915 SE Hawthorne Blvd. Portland, OR 97214",
        "Notes": "Dog friendly"
      },
      "geometry": {
        "type": "Point",
        "coordinates": [
          -122.65625953674315,
          45.512331780814186
        ]
      }
    },
    {
        "type": "Feature",
        "properties": {
            "Name": "SouthEast Grind",
            "Address": "1223 SE Powell Blvd, Portland, OR 97202",
            "Notes": "Open 24 hours!"
        },
        "geometry": {
            "type": "Point",
            "coordinates": [
             -122.652459,
             45.500966
            ]
        }
    },
    {
        "type": "Feature",
        "properties": {
            "Name": "Rain or Shine Coffeehouse",
            "Address": "5941 SE Division St Portland, OR 97206",
            "Notes": "Near Mt Tabor"
        },
        "geometry": {
            "type": "Point",
            "coordinates": [
                -122.601816,
                45.505664  
            ]
        }
    }
    ]
}
